{
  "type": "FeatureCollection",
  "generator": "overpass-turbo",
  "copyright": "The data included in this document is from www.openstreetmap.org. The data is made available under ODbL.",
  "timestamp": "2025-09-10T19:11:52Z",
  "features": [
    {
      "type": "Feature",
      "properties": {
        "@id": "relation/5563741",
        "amenity": "clinic",
        "building": "yes",
        "type": "multipolygon",
        "@geometry": "center"
      },
      "geometry": {
        "type": "Point",
        "coordinates": [
          46.8106337,
          -25.0343367
        ]
      },
      "id": "relation/5563741"
    },
    {
      "type": "Feature",
      "properties": {
        "@id": "relation/7413664",
        "amenity": "hospital",
        "health_facility:MG": "CHRR",
        "healthcare": "hospital",
        "name": "CHRR Ambositra",
        "operator:type": "public",
        "type": "multipolygon",
        "@geometry": "center"
      },
      "geometry": {
        "type": "Point",
        "coordinates": [
          47.2419797,
          -20.5410148
        ]
      },
      "id": "relation/7413664"
    },
    {
      "type": "Feature",
      "properties": {
        "@id": "relation/8174987",
        "amenity": "hospital",
        "health_facility:MG": "CHRR",
        "healthcare": "hospital",
        "name": "Centre Hospitalier de Référence Régionale de Bongolava",
        "short_name": "CHRR Bongolava",
        "type": "multipolygon",
        "@geometry": "center"
      },
      "geometry": {
        "type": "Point",
        "coordinates": [
          46.0485147,
          -18.7732594
        ]
      },
      "id": "relation/8174987"
    },
    {
      "type": "Feature",
      "properties": {
        "@id": "relation/9679185",
        "amenity": "doctors",
        "health_facility:MG": "CSB2",
        "healthcare": "doctor",
        "name": "CSB II Befeta",
        "operator:type": "public",
        "type": "multipolygon",
        "@geometry": "center"
      },
      "geometry": {
        "type": "Point",
        "coordinates": [
          47.0490464,
          -21.2325869
        ]
      },
      "id": "relation/9679185"
    },
    {
      "type": "Feature",
      "properties": {
        "@id": "relation/10812835",
        "amenity": "doctors",
        "health_facility:MG": "CSB2",
        "health_facility:type": "dispensary",
        "healthcare": "doctor",
        "name": "CSB II Camp Robin",
        "note": "CSB2",
        "operator:type": "public",
        "type": "multipolygon",
        "@geometry": "center"
      },
      "geometry": {
        "type": "Point",
        "coordinates": [
          47.1405207,
          -20.9295313
        ]
      },
      "id": "relation/10812835"
    },
    {
      "type": "Feature",
      "properties": {
        "@id": "relation/11012807",
        "amenity": "doctors",
        "health_facility:MG": "CSB2",
        "health_facility:type": "dispensary",
        "healthcare": "doctor",
        "name": "CSB II Andasibe",
        "note": "CSB2",
        "type": "multipolygon",
        "@geometry": "center"
      },
      "geometry": {
        "type": "Point",
        "coordinates": [
          48.4190177,
          -18.9224992
        ]
      },
      "id": "relation/11012807"
    },
    {
      "type": "Feature",
      "properties": {
        "@id": "relation/11226396",
        "amenity": "hospital",
        "health_facility:MG": "CHRR",
        "healthcare": "hospital",
        "name": "Centre Hospitalier de Référence Régionale Alaotra Mangoro",
        "note": "CHRR",
        "operator:type": "public",
        "type": "multipolygon",
        "@geometry": "center"
      },
      "geometry": {
        "type": "Point",
        "coordinates": [
          48.4243816,
          -17.8356272
        ]
      },
      "id": "relation/11226396"
    },
    {
      "type": "Feature",
      "properties": {
        "@id": "way/37800948",
        "addr:city": "Antsirabe",
        "alt_name": "CHRR Vakinankaratra",
        "amenity": "hospital",
        "emergency": "yes",
        "health_facility:MG": "CHRR",
        "healthcare": "hospital",
        "name": "Hopitaly Atsimo",
        "operator:type": "public",
        "@geometry": "center"
      },
      "geometry": {
        "type": "Point",
        "coordinates": [
          47.0279054,
          -19.8724635
        ]
      },
      "id": "way/37800948"
    },
    {
      "type": "Feature",
      "properties": {
        "@id": "way/45980156",
        "amenity": "hospital",
        "name": "Centre Hospitalier de Soavinandriana",
        "name:fr": "Centren Hospitalier Soavinandriana, HJRA",
        "note": "Centre Hospitalier Universitaire (CHU)",
        "@geometry": "center"
      },
      "geometry": {
        "type": "Point",
        "coordinates": [
          47.5430317,
          -18.8974332
        ]
      },
      "id": "way/45980156"
    },
    {
      "type": "Feature",
      "properties": {
        "@id": "way/46330981",
        "amenity": "hospital",
        "name": "Cliniques privées de l'Eglise Luthérienne d'Ambohibao",
        "note": "Sampanasa Loterana momba ny Fahasalamana (SALFA)",
        "@geometry": "center"
      },
      "geometry": {
        "type": "Point",
        "coordinates": [
          47.4762076,
          -18.8510572
        ]
      },
      "id": "way/46330981"
    },
    {
      "type": "Feature",
      "properties": {
        "@id": "way/46339571",
        "alt_name": "CHRD Ambohidroa",
        "amenity": "hospital",
        "health_facility:MG": "CHRD",
        "healthcare": "hospital",
        "name": "Hopital Ambohidroa",
        "note": "Centre hospitalier de district niveau I (CHD1)",
        "operator:type": "public",
        "@geometry": "center"
      },
      "geometry": {
        "type": "Point",
        "coordinates": [
          47.4864272,
          -18.8554187
        ]
      },
      "id": "way/46339571"
    },
    {
      "type": "Feature",
      "properties": {
        "@id": "way/47471585",
        "amenity": "hospital",
        "health_facility:MG": "CHU",
        "healthcare": "hospital",
        "name": "Hôpital Joseph Ravoahangy-Andrianavalona",
        "name:etymology:wikidata": "Q31361889",
        "operator:type": "public",
        "short_name": "CHUJRA",
        "@geometry": "center"
      },
      "geometry": {
        "type": "Point",
        "coordinates": [
          47.5184742,
          -18.9199041
        ]
      },
      "id": "way/47471585"
    },
    {
      "type": "Feature",
      "properties": {
        "@id": "way/53578987",
        "amenity": "hospital",
        "emergency": "yes",
        "health_facility:MG": "CHU",
        "healthcare": "hospital",
        "name": "Centre Hospitalier Universitaire de Toamasina",
        "@geometry": "center"
      },
      "geometry": {
        "type": "Point",
        "coordinates": [
          49.4171418,
          -18.1423763
        ]
      },
      "id": "way/53578987"
    },
    {
      "type": "Feature",
      "properties": {
        "@id": "way/55412338",
        "amenity": "clinic",
        "name": "OSTIE Anosibe",
        "@geometry": "center"
      },
      "geometry": {
        "type": "Point",
        "coordinates": [
          47.5189209,
          -18.9219443
        ]
      },
      "id": "way/55412338"
    },
    {
      "type": "Feature",
      "properties": {
        "@id": "way/70246948",
        "alt_name": "CHU Fenoarivo",
        "amenity": "hospital",
        "health_facility:MG": "CHU",
        "healthcare": "hospital",
        "name": "Hopital de Fenoarivo",
        "note": "Centre Hospitalier Universitaire (CHU)",
        "operator:type": "public",
        "@geometry": "center"
      },
      "geometry": {
        "type": "Point",
        "coordinates": [
          47.4351836,
          -18.9367812
        ]
      },
      "id": "way/70246948"
    },
    {
      "type": "Feature",
      "properties": {
        "@id": "way/70253166",
        "amenity": "hospital",
        "name": "Hôpital luthérien des 67ha",
        "note": "Sampanasa Loteriana momba ny Fahasalamana (SALFA)",
        "@geometry": "center"
      },
      "geometry": {
        "type": "Point",
        "coordinates": [
          47.5073302,
          -18.9078277
        ]
      },
      "id": "way/70253166"
    },
    {
      "type": "Feature",
      "properties": {
        "@id": "way/70711273",
        "amenity": "doctors",
        "health_facility:MG": "CSB2",
        "healthcare": "doctor",
        "name": "Marie Stopes International Avaradoha",
        "operator": "Marie Stopes International",
        "short_name": "MSI Avaradoha",
        "@geometry": "center"
      },
      "geometry": {
        "type": "Point",
        "coordinates": [
          47.5445603,
          -18.8998771
        ]
      },
      "id": "way/70711273"
    },
    {
      "type": "Feature",
      "properties": {
        "@id": "way/136493017",
        "amenity": "hospital",
        "emergency": "yes",
        "health_facility:MG": "CHRD",
        "healthcare": "hospital",
        "name": "CHD II Moramanga",
        "operator:type": "public",
        "@geometry": "center"
      },
      "geometry": {
        "type": "Point",
        "coordinates": [
          48.2379373,
          -18.948243
        ]
      },
      "id": "way/136493017"
    },
    {
      "type": "Feature",
      "properties": {
        "@id": "way/136493753",
        "amenity": "hospital",
        "name": "SSD",
        "@geometry": "center"
      },
      "geometry": {
        "type": "Point",
        "coordinates": [
          48.2365548,
          -18.9482282
        ]
      },
      "id": "way/136493753"
    },
    {
      "type": "Feature",
      "properties": {
        "@id": "way/169526134",
        "amenity": "hospital",
        "@geometry": "center"
      },
      "geometry": {
        "type": "Point",
        "coordinates": [
          47.0561248,
          -15.6723554
        ]
      },
      "id": "way/169526134"
    },
    {
      "type": "Feature",
      "properties": {
        "@id": "way/183206349",
        "amenity": "hospital",
        "health_facility:MG": "CHRD",
        "healthcare": "hospital",
        "name": "CHD I Befandriana Nord",
        "@geometry": "center"
      },
      "geometry": {
        "type": "Point",
        "coordinates": [
          48.5398446,
          -15.2552771
        ]
      },
      "id": "way/183206349"
    },
    {
      "type": "Feature",
      "properties": {
        "@id": "way/185849165",
        "amenity": "doctors",
        "health_facility:MG": "CSB2",
        "health_facility:type": "dispensary",
        "healthcare": "doctor",
        "name": "CSB II Mandoto",
        "operator:type": "public",
        "source": "survey",
        "@geometry": "center"
      },
      "geometry": {
        "type": "Point",
        "coordinates": [
          46.2917596,
          -19.5801635
        ]
      },
      "id": "way/185849165"
    },
    {
      "type": "Feature",
      "properties": {
        "@id": "way/191091708",
        "amenity": "pharmacy",
        "building": "yes",
        "dispensing": "yes",
        "healthcare": "pharmacy",
        "name": "Pharmacie de Tsiroanomandidy",
        "source": "bing",
        "@geometry": "center"
      },
      "geometry": {
        "type": "Point",
        "coordinates": [
          46.0487935,
          -18.770744
        ]
      },
      "id": "way/191091708"
    },
    {
      "type": "Feature",
      "properties": {
        "@id": "way/191358920",
        "amenity": "hospital",
        "building": "yes",
        "healthcare": "hospital",
        "@geometry": "center"
      },
      "geometry": {
        "type": "Point",
        "coordinates": [
          47.0425872,
          -19.8757969
        ]
      },
      "id": "way/191358920"
    },
    {
      "type": "Feature",
      "properties": {
        "@id": "way/192637580",
        "alt_name": "CHRD Nosy Be",
        "amenity": "hospital",
        "health_facility:MG": "CHRD",
        "healthcare": "hospital",
        "name": "Hopitalibe",
        "operator:type": "public",
        "@geometry": "center"
      },
      "geometry": {
        "type": "Point",
        "coordinates": [
          48.2646874,
          -13.4005084
        ]
      },
      "id": "way/192637580"
    },
    {
      "type": "Feature",
      "properties": {
        "@id": "way/198851791",
        "amenity": "doctors",
        "building": "yes",
        "name": "Centre de santé",
        "@geometry": "center"
      },
      "geometry": {
        "type": "Point",
        "coordinates": [
          46.1171911,
          -19.3706823
        ]
      },
      "id": "way/198851791"
    },
    {
      "type": "Feature",
      "properties": {
        "@id": "way/200503090",
        "amenity": "hospital",
        "building": "yes",
        "healthcare": "hospital",
        "name": "Centre Hospitalier Universitaire",
        "@geometry": "center"
      },
      "geometry": {
        "type": "Point",
        "coordinates": [
          49.2967445,
          -12.2689495
        ]
      },
      "id": "way/200503090"
    },
    {
      "type": "Feature",
      "properties": {
        "@id": "way/206329817",
        "amenity": "hospital",
        "emergency": "yes",
        "healthcare": "hospital",
        "name": "Dispensaire Havozo",
        "@geometry": "center"
      },
      "geometry": {
        "type": "Point",
        "coordinates": [
          47.5318779,
          -18.913626
        ]
      },
      "id": "way/206329817"
    },
    {
      "type": "Feature",
      "properties": {
        "@id": "way/208777872",
        "amenity": "pharmacy",
        "building": "yes",
        "dispensing": "yes",
        "name": "Pharmacie de Tanambao",
        "@geometry": "center"
      },
      "geometry": {
        "type": "Point",
        "coordinates": [
          43.6724214,
          -23.3524032
        ]
      },
      "id": "way/208777872"
    },
    {
      "type": "Feature",
      "properties": {
        "@id": "way/208784756",
        "alt_name": "CHU Tanambao",
        "amenity": "hospital",
        "emergency": "yes",
        "health_facility:MG": "CHU",
        "healthcare": "hospital",
        "name": "Hopitaliben'i Toliara",
        "operator:type": "public",
        "@geometry": "center"
      },
      "geometry": {
        "type": "Point",
        "coordinates": [
          43.6760987,
          -23.3521402
        ]
      },
      "id": "way/208784756"
    },
    {
      "type": "Feature",
      "properties": {
        "@id": "way/209000482",
        "amenity": "hospital",
        "health_facility:MG": "CHRD",
        "healthcare": "hospital",
        "name": "CHD I Bekily",
        "@geometry": "center"
      },
      "geometry": {
        "type": "Point",
        "coordinates": [
          45.3182221,
          -24.2203455
        ]
      },
      "id": "way/209000482"
    },
    {
      "type": "Feature",
      "properties": {
        "@id": "way/209055637",
        "amenity": "pharmacy",
        "building": "yes",
        "dispensing": "yes",
        "name": "Pharmacie Zanatany",
        "source": "Bing",
        "@geometry": "center"
      },
      "geometry": {
        "type": "Point",
        "coordinates": [
          43.6820076,
          -23.356048
        ]
      },
      "id": "way/209055637"
    },
    {
      "type": "Feature",
      "properties": {
        "@id": "way/214815729",
        "amenity": "doctors",
        "health_facility:MG": "CSB2",
        "healthcare": "doctor",
        "name": "CSB II Bekily",
        "@geometry": "center"
      },
      "geometry": {
        "type": "Point",
        "coordinates": [
          45.3195441,
          -24.2194776
        ]
      },
      "id": "way/214815729"
    },
    {
      "type": "Feature",
      "properties": {
        "@id": "way/215204406",
        "amenity": "doctors",
        "health_facility:MG": "CSB2",
        "healthcare": "doctor",
        "name": "CSB II Ankaranabo",
        "@geometry": "center"
      },
      "geometry": {
        "type": "Point",
        "coordinates": [
          45.2858384,
          -24.1949902
        ]
      },
      "id": "way/215204406"
    },
    {
      "type": "Feature",
      "properties": {
        "@id": "way/215764711",
        "amenity": "pharmacy",
        "dispensing": "yes",
        "healthcare": "pharmacy",
        "@geometry": "center"
      },
      "geometry": {
        "type": "Point",
        "coordinates": [
          45.3174039,
          -24.222625
        ]
      },
      "id": "way/215764711"
    },
    {
      "type": "Feature",
      "properties": {
        "@id": "way/218493088",
        "amenity": "doctors",
        "building": "yes",
        "health_facility:MG": "CSB2",
        "healthcare": "doctor",
        "name": "CSB II Bekitro",
        "@geometry": "center"
      },
      "geometry": {
        "type": "Point",
        "coordinates": [
          45.2971642,
          -24.5507526
        ]
      },
      "id": "way/218493088"
    },
    {
      "type": "Feature",
      "properties": {
        "@id": "way/218493089",
        "amenity": "doctors",
        "building": "yes",
        "health_facility:MG": "CSB2",
        "healthcare": "doctor",
        "name": "CSB II Belindo",
        "@geometry": "center"
      },
      "geometry": {
        "type": "Point",
        "coordinates": [
          45.4131759,
          -24.4847764
        ]
      },
      "id": "way/218493089"
    },
    {
      "type": "Feature",
      "properties": {
        "@id": "way/218493090",
        "amenity": "doctors",
        "health_facility:MG": "CSB2",
        "healthcare": "doctor",
        "name": "CSB II Manakompy",
        "@geometry": "center"
      },
      "geometry": {
        "type": "Point",
        "coordinates": [
          45.3912114,
          -24.3199433
        ]
      },
      "id": "way/218493090"
    },
    {
      "type": "Feature",
      "properties": {
        "@id": "way/220869276",
        "amenity": "doctors",
        "building": "yes",
        "health_facility:MG": "CSB2",
        "healthcare": "doctor",
        "name": "CSB II Befandriana",
        "@geometry": "center"
      },
      "geometry": {
        "type": "Point",
        "coordinates": [
          43.8910829,
          -22.1075972
        ]
      },
      "id": "way/220869276"
    },
    {
      "type": "Feature",
      "properties": {
        "@id": "way/223923275",
        "amenity": "doctors",
        "building": "hospital",
        "health_facility:MG": "CSB2",
        "health_facility:type": "dispensary",
        "healthcare": "doctor",
        "name": "CSB II Soanierana",
        "operator:type": "public",
        "@geometry": "center"
      },
      "geometry": {
        "type": "Point",
        "coordinates": [
          46.8917871,
          -25.007138
        ]
      },
      "id": "way/223923275"
    },
    {
      "type": "Feature",
      "properties": {
        "@id": "way/230481189",
        "alt_name": "CHRR Fort Dauphin",
        "amenity": "hospital",
        "health_facility:MG": "CHRR",
        "healthcare": "hospital",
        "name": "Hospital Philbert Tsiranana",
        "operator:type": "public",
        "source": "Bing",
        "@geometry": "center"
      },
      "geometry": {
        "type": "Point",
        "coordinates": [
          46.981496,
          -25.0230119
        ]
      },
      "id": "way/230481189"
    },
    {
      "type": "Feature",
      "properties": {
        "@id": "way/230681036",
        "amenity": "hospital",
        "healthcare": "hospital",
        "name": "Hôpital Mahabibo",
        "@geometry": "center"
      },
      "geometry": {
        "type": "Point",
        "coordinates": [
          46.3179794,
          -15.715162
        ]
      },
      "id": "way/230681036"
    },
    {
      "type": "Feature",
      "properties": {
        "@id": "way/230685209",
        "amenity": "hospital",
        "barrier": "fence",
        "health_facility:MG": "CHU",
        "healthcare": "hospital",
        "loc_name": "Androva",
        "name": "Centre Hospitalier Universitaire Zafisaona Gabriel",
        "@geometry": "center"
      },
      "geometry": {
        "type": "Point",
        "coordinates": [
          46.3044448,
          -15.7169076
        ]
      },
      "id": "way/230685209"
    },
    {
      "type": "Feature",
      "properties": {
        "@id": "way/231466622",
        "amenity": "pharmacy",
        "building": "yes",
        "name": "Pharmacie Kanacia",
        "@geometry": "center"
      },
      "geometry": {
        "type": "Point",
        "coordinates": [
          46.9813728,
          -25.0283175
        ]
      },
      "id": "way/231466622"
    },
    {
      "type": "Feature",
      "properties": {
        "@id": "way/231514938",
        "amenity": "pharmacy",
        "building": "yes",
        "healthcare": "pharmacy",
        "name": "Pharmacie ENDOR",
        "@geometry": "center"
      },
      "geometry": {
        "type": "Point",
        "coordinates": [
          46.9793681,
          -25.0290757
        ]
      },
      "id": "way/231514938"
    },
    {
      "type": "Feature",
      "properties": {
        "@id": "way/232149017",
        "amenity": "clinic",
        "building": "yes",
        "name": "Medical Centre",
        "@geometry": "center"
      },
      "geometry": {
        "type": "Point",
        "coordinates": [
          47.182479,
          -24.7794975
        ]
      },
      "id": "way/232149017"
    },
    {
      "type": "Feature",
      "properties": {
        "@id": "way/232709139",
        "amenity": "hospital",
        "building": "yes",
        "name": "Hôpital Privé Rio Tinto",
        "@geometry": "center"
      },
      "geometry": {
        "type": "Point",
        "coordinates": [
          46.9444151,
          -25.0259779
        ]
      },
      "id": "way/232709139"
    },
    {
      "type": "Feature",
      "properties": {
        "@id": "way/232969513",
        "amenity": "hospital",
        "healthcare": "hospital",
        "@geometry": "center"
      },
      "geometry": {
        "type": "Point",
        "coordinates": [
          47.0425077,
          -19.8760812
        ]
      },
      "id": "way/232969513"
    },
    {
      "type": "Feature",
      "properties": {
        "@id": "way/245987956",
        "amenity": "hospital",
        "health_facility:MG": "CHRR",
        "healthcare": "hospital",
        "name": "Centre Hospitalier de Référence Régional Antsohihy",
        "short_name": "CHRR Antsohihy",
        "@geometry": "center"
      },
      "geometry": {
        "type": "Point",
        "coordinates": [
          47.9842917,
          -14.8742474
        ]
      },
      "id": "way/245987956"
    },
    {
      "type": "Feature",
      "properties": {
        "@id": "way/246138550",
        "amenity": "hospital",
        "building": "yes",
        "name": "Clinic",
        "@geometry": "center"
      },
      "geometry": {
        "type": "Point",
        "coordinates": [
          47.98465,
          -14.8804249
        ]
      },
      "id": "way/246138550"
    },
    {
      "type": "Feature",
      "properties": {
        "@id": "way/262638791",
        "amenity": "pharmacy",
        "name": "Pharmacie Mirarisoa",
        "name:fr": "Pharmacie Anosisoa",
        "@geometry": "center"
      },
      "geometry": {
        "type": "Point",
        "coordinates": [
          47.4916377,
          -18.8691668
        ]
      },
      "id": "way/262638791"
    },
    {
      "type": "Feature",
      "properties": {
        "@id": "way/266763590",
        "amenity": "hospital",
        "emergency": "yes",
        "name": "Hôpital des Enfants",
        "@geometry": "center"
      },
      "geometry": {
        "type": "Point",
        "coordinates": [
          47.5231654,
          -18.9067391
        ]
      },
      "id": "way/266763590"
    },
    {
      "type": "Feature",
      "properties": {
        "@id": "way/276420341",
        "amenity": "pharmacy",
        "building": "yes",
        "dispensing": "no",
        "name": "Pharmacie des Gros districts",
        "@geometry": "center"
      },
      "geometry": {
        "type": "Point",
        "coordinates": [
          48.9792127,
          -19.3309014
        ]
      },
      "id": "way/276420341"
    },
    {
      "type": "Feature",
      "properties": {
        "@id": "way/276420344",
        "amenity": "pharmacy",
        "building": "yes",
        "dispensing": "no",
        "name": "Dépôt de médicaments de Vatomandry",
        "@geometry": "center"
      },
      "geometry": {
        "type": "Point",
        "coordinates": [
          48.9788218,
          -19.3303091
        ]
      },
      "id": "way/276420344"
    },
    {
      "type": "Feature",
      "properties": {
        "@id": "way/280013411",
        "amenity": "doctors",
        "building": "hospital",
        "health_facility:MG": "CSB2",
        "healthcare": "doctor",
        "name": "CSB II Soavinandriana",
        "@geometry": "center"
      },
      "geometry": {
        "type": "Point",
        "coordinates": [
          46.7382003,
          -19.1708542
        ]
      },
      "id": "way/280013411"
    },
    {
      "type": "Feature",
      "properties": {
        "@id": "way/289368757",
        "amenity": "doctors",
        "health_facility:MG": "CSB2",
        "health_facility:type": "dispensary",
        "healthcare": "doctor",
        "name": "CSB II Ambalavato",
        "operator": "Ministère de la santé",
        "operator:type": "public",
        "@geometry": "center"
      },
      "geometry": {
        "type": "Point",
        "coordinates": [
          47.0431322,
          -19.8757749
        ]
      },
      "id": "way/289368757"
    },
    {
      "type": "Feature",
      "properties": {
        "@id": "way/293866533",
        "amenity": "clinic",
        "building": "yes",
        "@geometry": "center"
      },
      "geometry": {
        "type": "Point",
        "coordinates": [
          47.0788004,
          -24.7911776
        ]
      },
      "id": "way/293866533"
    },
    {
      "type": "Feature",
      "properties": {
        "@id": "way/299168040",
        "amenity": "hospital",
        "health_facility:MG": "CHRD",
        "healthcare": "hospital",
        "name": "Centre Hostpitalier de Référence de District Mananjary",
        "operator:type": "public",
        "@geometry": "center"
      },
      "geometry": {
        "type": "Point",
        "coordinates": [
          48.3550975,
          -21.2135488
        ]
      },
      "id": "way/299168040"
    },
    {
      "type": "Feature",
      "properties": {
        "@id": "way/305968970",
        "amenity": "doctors",
        "emergency": "no",
        "health_facility:MG": "CSB2",
        "healthcare": "doctor",
        "name": "CSB II Anivorano Est",
        "note": "A public, rural health clinic serving the commune Anivorano Est and receiving patients from surrounding communes. A CSB level II is run by a doctor, as opposed to level I clinics which only have support staff.",
        "operator:type": "public",
        "@geometry": "center"
      },
      "geometry": {
        "type": "Point",
        "coordinates": [
          48.9817616,
          -18.7362233
        ]
      },
      "id": "way/305968970"
    },
    {
      "type": "Feature",
      "properties": {
        "@id": "way/310350947",
        "addr:street": "Rabearivelo",
        "amenity": "hospital",
        "building": "yes",
        "email": "cms.tananarive@gmail.com",
        "healthcare": "hospital",
        "name:fr": "Centre médico-social de l'ambassade de France",
        "opening_hours": "Mo-Fr 07:30-12:30, 13:30-16:30; Sa 07:30-12:30, 13:30-15:00",
        "phone": "22-236-62",
        "@geometry": "center"
      },
      "geometry": {
        "type": "Point",
        "coordinates": [
          47.5232188,
          -18.9095892
        ]
      },
      "id": "way/310350947"
    },
    {
      "type": "Feature",
      "properties": {
        "@id": "way/313379021",
        "amenity": "hospital",
        "building": "hospital",
        "healthcare": "hospital",
        "name": "Maternité Befelatanana",
        "@geometry": "center"
      },
      "geometry": {
        "type": "Point",
        "coordinates": [
          47.5228938,
          -18.9193613
        ]
      },
      "id": "way/313379021"
    },
    {
      "type": "Feature",
      "properties": {
        "@id": "way/313379023",
        "amenity": "hospital",
        "building": "hospital",
        "name": "Centre de Stomatologie de Befelatanana",
        "@geometry": "center"
      },
      "geometry": {
        "type": "Point",
        "coordinates": [
          47.5224638,
          -18.9192098
        ]
      },
      "id": "way/313379023"
    },
    {
      "type": "Feature",
      "properties": {
        "@id": "way/315568291",
        "amenity": "hospital",
        "healthcare": "hospital",
        "@geometry": "center"
      },
      "geometry": {
        "type": "Point",
        "coordinates": [
          47.5421221,
          -18.9077812
        ]
      },
      "id": "way/315568291"
    },
    {
      "type": "Feature",
      "properties": {
        "@id": "way/315568292",
        "amenity": "hospital",
        "healthcare": "hospital",
        "@geometry": "center"
      },
      "geometry": {
        "type": "Point",
        "coordinates": [
          47.5418602,
          -18.9077502
        ]
      },
      "id": "way/315568292"
    },
    {
      "type": "Feature",
      "properties": {
        "@id": "way/315568312",
        "amenity": "hospital",
        "healthcare": "hospital",
        "@geometry": "center"
      },
      "geometry": {
        "type": "Point",
        "coordinates": [
          47.5420773,
          -18.9080813
        ]
      },
      "id": "way/315568312"
    },
    {
      "type": "Feature",
      "properties": {
        "@id": "way/322356301",
        "amenity": "hospital",
        "health_facility:MG": "CHRR",
        "healthcare": "hospital",
        "image": "https://upload.wikimedia.org/wikipedia/commons/5/54/CHRR_Manakara.jpg",
        "name": "Centre Hospitalier de Référence Régional Manakara",
        "operator:type": "public",
        "short_name": "CHRR Manakara",
        "@geometry": "center"
      },
      "geometry": {
        "type": "Point",
        "coordinates": [
          48.0107444,
          -22.1408711
        ]
      },
      "id": "way/322356301"
    },
    {
      "type": "Feature",
      "properties": {
        "@id": "way/323327294",
        "amenity": "doctors",
        "building": "yes",
        "health_facility:MG": "CSB2",
        "health_facility:type": "health_centre",
        "healthcare": "doctor",
        "name": "Centre de Santé de Base Niveau II Niarovana Caroline",
        "operator:type": "public",
        "short_name": "CSB II",
        "source": "Bing Sat",
        "@geometry": "center"
      },
      "geometry": {
        "type": "Point",
        "coordinates": [
          48.7984743,
          -19.5740077
        ]
      },
      "id": "way/323327294"
    },
    {
      "type": "Feature",
      "properties": {
        "@id": "way/351242904",
        "amenity": "doctors",
        "building": "yes",
        "health_facility:MG": "CSB2",
        "healthcare": "doctor",
        "name": "CSB II Antanimbary",
        "@geometry": "center"
      },
      "geometry": {
        "type": "Point",
        "coordinates": [
          46.8550753,
          -17.1849751
        ]
      },
      "id": "way/351242904"
    },
    {
      "type": "Feature",
      "properties": {
        "@id": "way/351955424",
        "amenity": "hospital",
        "healthcare": "hospital",
        "name": "Centre Mère Thérésa",
        "@geometry": "center"
      },
      "geometry": {
        "type": "Point",
        "coordinates": [
          46.3179068,
          -15.7004377
        ]
      },
      "id": "way/351955424"
    },
    {
      "type": "Feature",
      "properties": {
        "@id": "way/352033865",
        "amenity": "hospital",
        "building": "hospital",
        "emergency": "yes",
        "healthcare": "hospital",
        "name": "Amadia Annexe",
        "@geometry": "center"
      },
      "geometry": {
        "type": "Point",
        "coordinates": [
          47.5311384,
          -18.9112139
        ]
      },
      "id": "way/352033865"
    },
    {
      "type": "Feature",
      "properties": {
        "@id": "way/363366894",
        "amenity": "hospital",
        "health_facility:MG": "CHU",
        "healthcare": "hospital",
        "loc_name": "Hopitaliben'i Fianarantsoa",
        "name": "Centre Hospitalier Universitaire Tambohobe",
        "operator:type": "public",
        "short_name": "CHU Tambohobe",
        "@geometry": "center"
      },
      "geometry": {
        "type": "Point",
        "coordinates": [
          47.0860273,
          -21.4447324
        ]
      },
      "id": "way/363366894"
    },
    {
      "type": "Feature",
      "properties": {
        "@id": "way/366820482",
        "amenity": "doctors",
        "building": "hospital",
        "health_facility:MG": "CSB2",
        "healthcare": "doctor",
        "name": "CSB II Manaotsara",
        "source": "Bing",
        "@geometry": "center"
      },
      "geometry": {
        "type": "Point",
        "coordinates": [
          47.1036397,
          -21.4479906
        ]
      },
      "id": "way/366820482"
    },
    {
      "type": "Feature",
      "properties": {
        "@id": "way/370284532",
        "amenity": "clinic",
        "building": "yes",
        "name": "SOMECHI",
        "@geometry": "center"
      },
      "geometry": {
        "type": "Point",
        "coordinates": [
          47.9911254,
          -14.8964692
        ]
      },
      "id": "way/370284532"
    },
    {
      "type": "Feature",
      "properties": {
        "@id": "way/370284717",
        "amenity": "clinic",
        "building": "yes",
        "@geometry": "center"
      },
      "geometry": {
        "type": "Point",
        "coordinates": [
          47.9882434,
          -14.8829862
        ]
      },
      "id": "way/370284717"
    },
    {
      "type": "Feature",
      "properties": {
        "@id": "way/372702231",
        "amenity": "doctors",
        "health_facility:MG": "CSB2",
        "health_facility:type": "dispensary",
        "healthcare": "doctor",
        "name": "CSB II Imito",
        "operator:type": "public",
        "@geometry": "center"
      },
      "geometry": {
        "type": "Point",
        "coordinates": [
          47.3323105,
          -20.4209252
        ]
      },
      "id": "way/372702231"
    },
    {
      "type": "Feature",
      "properties": {
        "@id": "way/372786633",
        "amenity": "pharmacy",
        "building": "yes",
        "healthcare": "pharmacy",
        "@geometry": "center"
      },
      "geometry": {
        "type": "Point",
        "coordinates": [
          47.332923,
          -20.4181896
        ]
      },
      "id": "way/372786633"
    },
    {
      "type": "Feature",
      "properties": {
        "@id": "way/373746788",
        "amenity": "doctors",
        "health_facility:MG": "CSB2",
        "health_facility:type": "dispensary",
        "healthcare": "doctor",
        "name": "CSB II Zanabahona",
        "operator:type": "public",
        "@geometry": "center"
      },
      "geometry": {
        "type": "Point",
        "coordinates": [
          47.324575,
          -20.4548933
        ]
      },
      "id": "way/373746788"
    },
    {
      "type": "Feature",
      "properties": {
        "@id": "way/374673629",
        "amenity": "doctors",
        "health_facility:MG": "CSB2",
        "health_facility:type": "dispensary",
        "healthcare": "doctor",
        "name": "CSB II Miarinavaratra",
        "operator:type": "public",
        "@geometry": "center"
      },
      "geometry": {
        "type": "Point",
        "coordinates": [
          47.5001489,
          -20.2167342
        ]
      },
      "id": "way/374673629"
    },
    {
      "type": "Feature",
      "properties": {
        "@id": "way/375504899",
        "amenity": "hospital",
        "building": "yes",
        "@geometry": "center"
      },
      "geometry": {
        "type": "Point",
        "coordinates": [
          48.8076957,
          -19.894493
        ]
      },
      "id": "way/375504899"
    },
    {
      "type": "Feature",
      "properties": {
        "@id": "way/379796440",
        "amenity": "doctors",
        "building": "hospital",
        "health_facility:MG": "CSB2",
        "healthcare": "doctor",
        "name": "CSB II Ranomafana Est",
        "operator:type": "public",
        "@geometry": "center"
      },
      "geometry": {
        "type": "Point",
        "coordinates": [
          48.8433374,
          -18.9607732
        ]
      },
      "id": "way/379796440"
    },
    {
      "type": "Feature",
      "properties": {
        "@id": "way/379970063",
        "amenity": "doctors",
        "building": "yes",
        "health_facility:MG": "CSB2",
        "health_facility:type": "health_centre",
        "healthcare": "doctor",
        "name": "Centre de Sante de Base niveau II Maintinandry",
        "operator:type": "public",
        "short_name": "CSB II Maintinandry",
        "@geometry": "center"
      },
      "geometry": {
        "type": "Point",
        "coordinates": [
          48.9335166,
          -19.4244633
        ]
      },
      "id": "way/379970063"
    },
    {
      "type": "Feature",
      "properties": {
        "@id": "way/381483904",
        "amenity": "doctors",
        "building": "yes",
        "name": "Doctor Emma",
        "@geometry": "center"
      },
      "geometry": {
        "type": "Point",
        "coordinates": [
          46.8446055,
          -16.3390773
        ]
      },
      "id": "way/381483904"
    },
    {
      "type": "Feature",
      "properties": {
        "@id": "way/381494982",
        "addr:city": "Fianarantsoa",
        "addr:postcode": "301",
        "amenity": "doctors",
        "building": "yes",
        "healthcare": "doctor",
        "healthcare:speciality": "general",
        "name": "Cabinet médical MAMY",
        "source": "MadAtlas",
        "@geometry": "center"
      },
      "geometry": {
        "type": "Point",
        "coordinates": [
          47.0960118,
          -21.4413703
        ]
      },
      "id": "way/381494982"
    },
    {
      "type": "Feature",
      "properties": {
        "@id": "way/381688638",
        "amenity": "doctors",
        "building": "yes",
        "name": "FJKM",
        "@geometry": "center"
      },
      "geometry": {
        "type": "Point",
        "coordinates": [
          46.8467833,
          -16.3368136
        ]
      },
      "id": "way/381688638"
    },
    {
      "type": "Feature",
      "properties": {
        "@id": "way/383300703",
        "amenity": "doctors",
        "building": "hospital",
        "health_facility:MG": "CSB2",
        "healthcare": "doctor",
        "name": "CSB II Andranofasika",
        "@geometry": "center"
      },
      "geometry": {
        "type": "Point",
        "coordinates": [
          46.8418207,
          -16.3360695
        ]
      },
      "id": "way/383300703"
    },
    {
      "type": "Feature",
      "properties": {
        "@id": "way/383732833",
        "amenity": "clinic",
        "building": "yes",
        "@geometry": "center"
      },
      "geometry": {
        "type": "Point",
        "coordinates": [
          47.5176793,
          -20.2367068
        ]
      },
      "id": "way/383732833"
    },
    {
      "type": "Feature",
      "properties": {
        "@id": "way/383758016",
        "amenity": "clinic",
        "building": "yes",
        "name": "Tobim-pahasalamana Zanakatovo",
        "@geometry": "center"
      },
      "geometry": {
        "type": "Point",
        "coordinates": [
          47.5238243,
          -20.2288652
        ]
      },
      "id": "way/383758016"
    },
    {
      "type": "Feature",
      "properties": {
        "@id": "way/384794927",
        "amenity": "doctors",
        "building": "yes",
        "health_facility:MG": "CSB2",
        "health_facility:type": "health_centre",
        "healthcare": "doctor",
        "name": "Centre de Santé de Base II Tsarasambo",
        "operator:type": "public",
        "short_name": "CSB II Tsarasambo",
        "@geometry": "center"
      },
      "geometry": {
        "type": "Point",
        "coordinates": [
          48.8827703,
          -19.4361183
        ]
      },
      "id": "way/384794927"
    },
    {
      "type": "Feature",
      "properties": {
        "@id": "way/389370931",
        "amenity": "clinic",
        "healthcare": "clinic",
        "healthcare:speciality": "general",
        "name": "Centre de Santé",
        "@geometry": "center"
      },
      "geometry": {
        "type": "Point",
        "coordinates": [
          46.9986038,
          -25.0311286
        ]
      },
      "id": "way/389370931"
    },
    {
      "type": "Feature",
      "properties": {
        "@id": "way/390572669",
        "amenity": "hospital",
        "healthcare": "hospital",
        "healthcare:speciality": "emergency",
        "name": "Dispensaire ECAR",
        "source": "Bing;local knowledge",
        "@geometry": "center"
      },
      "geometry": {
        "type": "Point",
        "coordinates": [
          47.2195283,
          -21.5907208
        ]
      },
      "id": "way/390572669"
    },
    {
      "type": "Feature",
      "properties": {
        "@id": "way/392600712",
        "amenity": "hospital",
        "@geometry": "center"
      },
      "geometry": {
        "type": "Point",
        "coordinates": [
          47.5422001,
          -18.9171484
        ]
      },
      "id": "way/392600712"
    },
    {
      "type": "Feature",
      "properties": {
        "@id": "way/392785451",
        "addr:city": "Fianarantsoa",
        "addr:place": "Ambodirotra",
        "amenity": "pharmacy",
        "building": "yes",
        "healthcare": "pharmacy",
        "name": "Ezaka",
        "@geometry": "center"
      },
      "geometry": {
        "type": "Point",
        "coordinates": [
          47.0904861,
          -21.4563003
        ]
      },
      "id": "way/392785451"
    },
    {
      "type": "Feature",
      "properties": {
        "@id": "way/401337561",
        "amenity": "hospital",
        "healthcare": "hospital",
        "name": "Hopitaly Kely",
        "@geometry": "center"
      },
      "geometry": {
        "type": "Point",
        "coordinates": [
          49.4086025,
          -18.1533577
        ]
      },
      "id": "way/401337561"
    },
    {
      "type": "Feature",
      "properties": {
        "@id": "way/402127054",
        "amenity": "hospital",
        "building": "hospital",
        "healthcare": "hospital",
        "name": "Clinique des sœurs Ankadifotsy",
        "@geometry": "center"
      },
      "geometry": {
        "type": "Point",
        "coordinates": [
          47.5273928,
          -18.8963414
        ]
      },
      "id": "way/402127054"
    },
    {
      "type": "Feature",
      "properties": {
        "@id": "way/402885230",
        "addr:street": "Làlana Nanisana",
        "amenity": "hospital",
        "email": "laraoswaldo@yahoo.com",
        "name": "CMA",
        "name:en": "Systeme Medical Adventiste",
        "name:nl": "Adventisten medisch centrum",
        "phone": "+261202252652",
        "@geometry": "center"
      },
      "geometry": {
        "type": "Point",
        "coordinates": [
          47.563,
          -18.8942849
        ]
      },
      "id": "way/402885230"
    },
    {
      "type": "Feature",
      "properties": {
        "@id": "way/403081623",
        "amenity": "doctors",
        "building": "yes",
        "health_facility:MG": "CSB2",
        "health_facility:type": "health_centre",
        "healthcare": "doctor",
        "name": "Centre de Santé de Base Niveau II Ilaka Est",
        "operator:type": "public",
        "short_name": "CSB II",
        "@geometry": "center"
      },
      "geometry": {
        "type": "Point",
        "coordinates": [
          48.8374589,
          -19.5510084
        ]
      },
      "id": "way/403081623"
    },
    {
      "type": "Feature",
      "properties": {
        "@id": "way/403090829",
        "amenity": "hospital",
        "building": "yes",
        "health_facility:type": "dispensary",
        "name": "Dispensaire Batista Biblika",
        "@geometry": "center"
      },
      "geometry": {
        "type": "Point",
        "coordinates": [
          48.8113247,
          -19.5818393
        ]
      },
      "id": "way/403090829"
    },
    {
      "type": "Feature",
      "properties": {
        "@id": "way/424878900",
        "amenity": "hospital",
        "building": "yes",
        "health_facility:type": "dispensary",
        "@geometry": "center"
      },
      "geometry": {
        "type": "Point",
        "coordinates": [
          48.8061145,
          -19.8945923
        ]
      },
      "id": "way/424878900"
    },
    {
      "type": "Feature",
      "properties": {
        "@id": "way/434720848",
        "amenity": "hospital",
        "health_facility:MG": "CHRD",
        "healthcare": "hospital",
        "@geometry": "center"
      },
      "geometry": {
        "type": "Point",
        "coordinates": [
          49.3064658,
          -12.2819913
        ]
      },
      "id": "way/434720848"
    },
    {
      "type": "Feature",
      "properties": {
        "@id": "way/435647104",
        "amenity": "pharmacy",
        "name": "Dépot de médicament Aina",
        "@geometry": "center"
      },
      "geometry": {
        "type": "Point",
        "coordinates": [
          46.8892378,
          -25.0080409
        ]
      },
      "id": "way/435647104"
    },
    {
      "type": "Feature",
      "properties": {
        "@id": "way/435647117",
        "amenity": "pharmacy",
        "name": "Depot de Medicaments Mahasoa",
        "@geometry": "center"
      },
      "geometry": {
        "type": "Point",
        "coordinates": [
          46.8830493,
          -25.0094179
        ]
      },
      "id": "way/435647117"
    },
    {
      "type": "Feature",
      "properties": {
        "@id": "way/438130971",
        "alt_name": "Centre Medical de Tolagnaro",
        "amenity": "doctors",
        "emergency_telephone_code": "+261 34 2000 911",
        "name": "Centre Medical de Taolagnaro",
        "name:azafady": "Doctor Jane's",
        "old_name": "Centre Medical de Fort Dauphin",
        "opening_hours": "Mo-Su 09:00-18:00",
        "phone": "+261 34 2000 912",
        "source": "Bing",
        "@geometry": "center"
      },
      "geometry": {
        "type": "Point",
        "coordinates": [
          46.9900167,
          -25.0312509
        ]
      },
      "id": "way/438130971"
    },
    {
      "type": "Feature",
      "properties": {
        "@id": "way/442882198",
        "amenity": "hospital",
        "health_facility:type": "dispensary",
        "healthcare": "hospital",
        "name": "SMIDS",
        "@geometry": "center"
      },
      "geometry": {
        "type": "Point",
        "coordinates": [
          49.2964819,
          -12.2875804
        ]
      },
      "id": "way/442882198"
    },
    {
      "type": "Feature",
      "properties": {
        "@id": "way/448320753",
        "amenity": "hospital",
        "health_facility:MG": "CHRR",
        "healthcare": "hospital",
        "name": "Centre Hospitalier de Référence Régional Itasy",
        "operator:type": "public",
        "short_name": "CHRR Itasy",
        "@geometry": "center"
      },
      "geometry": {
        "type": "Point",
        "coordinates": [
          46.9068578,
          -18.95515
        ]
      },
      "id": "way/448320753"
    },
    {
      "type": "Feature",
      "properties": {
        "@id": "way/449598105",
        "amenity": "pharmacy",
        "building": "yes",
        "dispensing": "yes",
        "name": "Mahasoa",
        "@geometry": "center"
      },
      "geometry": {
        "type": "Point",
        "coordinates": [
          47.9950649,
          -14.8827305
        ]
      },
      "id": "way/449598105"
    },
    {
      "type": "Feature",
      "properties": {
        "@id": "way/457620681",
        "amenity": "doctors",
        "building": "hospital",
        "health_facility:MG": "CSB2",
        "healthcare": "doctor",
        "name": "CSB II Ambohibary",
        "operator:type": "public",
        "@geometry": "center"
      },
      "geometry": {
        "type": "Point",
        "coordinates": [
          48.2278112,
          -18.9161613
        ]
      },
      "id": "way/457620681"
    },
    {
      "type": "Feature",
      "properties": {
        "@id": "way/462532199",
        "amenity": "doctors",
        "health_facility:MG": "CSB2",
        "healthcare": "doctor",
        "name": "CSB II Sandrandahy",
        "operator:type": "public",
        "@geometry": "center"
      },
      "geometry": {
        "type": "Point",
        "coordinates": [
          47.2951746,
          -20.3518076
        ]
      },
      "id": "way/462532199"
    },
    {
      "type": "Feature",
      "properties": {
        "@id": "way/480497645",
        "amenity": "hospital",
        "healthcare": "hospital",
        "name": "Hôpital Médico-chirurgical SALFA Sambava",
        "operator": "FLM",
        "operator:type": "religious",
        "@geometry": "center"
      },
      "geometry": {
        "type": "Point",
        "coordinates": [
          50.1745167,
          -14.2718112
        ]
      },
      "id": "way/480497645"
    },
    {
      "type": "Feature",
      "properties": {
        "@id": "way/481823891",
        "amenity": "hospital",
        "emergency": "yes",
        "name": "Polyclinique Universitaire NEXT",
        "@geometry": "center"
      },
      "geometry": {
        "type": "Point",
        "coordinates": [
          49.3014752,
          -12.3193844
        ]
      },
      "id": "way/481823891"
    },
    {
      "type": "Feature",
      "properties": {
        "@id": "way/497104584",
        "amenity": "pharmacy",
        "building": "yes",
        "name": "Dépôts de médicaments Etoile Vatomandry",
        "@geometry": "center"
      },
      "geometry": {
        "type": "Point",
        "coordinates": [
          48.9774625,
          -19.3328005
        ]
      },
      "id": "way/497104584"
    },
    {
      "type": "Feature",
      "properties": {
        "@id": "way/497105553",
        "amenity": "hospital",
        "building": "yes",
        "health_facility:type": "dispensary",
        "name": "Dispensaire Vatomandry",
        "@geometry": "center"
      },
      "geometry": {
        "type": "Point",
        "coordinates": [
          48.9797254,
          -19.3312401
        ]
      },
      "id": "way/497105553"
    },
    {
      "type": "Feature",
      "properties": {
        "@id": "way/497112990",
        "amenity": "pharmacy",
        "building": "yes",
        "name": "Fivarotam-panafody Medicam",
        "@geometry": "center"
      },
      "geometry": {
        "type": "Point",
        "coordinates": [
          48.9762982,
          -19.3357213
        ]
      },
      "id": "way/497112990"
    },
    {
      "type": "Feature",
      "properties": {
        "@id": "way/497116628",
        "amenity": "pharmacy",
        "building": "yes",
        "name": "Dépôts de médicaments Max",
        "@geometry": "center"
      },
      "geometry": {
        "type": "Point",
        "coordinates": [
          48.9790052,
          -19.3260716
        ]
      },
      "id": "way/497116628"
    },
    {
      "type": "Feature",
      "properties": {
        "@id": "way/503642342",
        "amenity": "pharmacy",
        "building": "yes",
        "dispensing": "yes",
        "name": "Depot de Medicament La Confiance",
        "@geometry": "center"
      },
      "geometry": {
        "type": "Point",
        "coordinates": [
          48.9792007,
          -19.3259571
        ]
      },
      "id": "way/503642342"
    },
    {
      "type": "Feature",
      "properties": {
        "@id": "way/503778813",
        "addr:city": "Amparafaravola",
        "addr:postcode": "504",
        "amenity": "doctors",
        "health_facility:MG": "CSB2",
        "healthcare": "doctor",
        "name": "CSB II Sahamamy",
        "operator:type": "public",
        "@geometry": "center"
      },
      "geometry": {
        "type": "Point",
        "coordinates": [
          48.3016224,
          -17.5139613
        ]
      },
      "id": "way/503778813"
    },
    {
      "type": "Feature",
      "properties": {
        "@id": "way/507065430",
        "amenity": "pharmacy",
        "building": "yes",
        "dispensing": "no",
        "@geometry": "center"
      },
      "geometry": {
        "type": "Point",
        "coordinates": [
          48.9143976,
          -19.2329031
        ]
      },
      "id": "way/507065430"
    },
    {
      "type": "Feature",
      "properties": {
        "@id": "way/520482434",
        "amenity": "pharmacy",
        "building": "yes",
        "emergency": "no",
        "healthcare": "pharmacy",
        "name": "Pharmacie d'Anosizato",
        "@geometry": "center"
      },
      "geometry": {
        "type": "Point",
        "coordinates": [
          47.4980171,
          -18.9378891
        ]
      },
      "id": "way/520482434"
    },
    {
      "type": "Feature",
      "properties": {
        "@id": "way/523456373",
        "amenity": "doctors",
        "building": "hospital",
        "health_facility:MG": "CSB2",
        "healthcare": "doctor",
        "name": "CSB II Besoa",
        "operator:type": "public",
        "@geometry": "center"
      },
      "geometry": {
        "type": "Point",
        "coordinates": [
          46.7726723,
          -21.9103619
        ]
      },
      "id": "way/523456373"
    },
    {
      "type": "Feature",
      "properties": {
        "@id": "way/525118952",
        "amenity": "doctors",
        "building": "house",
        "healthcare": "doctor",
        "name": "Ambatovinaky Fahasoavana",
        "@geometry": "center"
      },
      "geometry": {
        "type": "Point",
        "coordinates": [
          47.5294793,
          -18.9149499
        ]
      },
      "id": "way/525118952"
    },
    {
      "type": "Feature",
      "properties": {
        "@id": "way/525143872",
        "amenity": "doctors",
        "building": "yes",
        "health_facility:MG": "CSB2",
        "healthcare": "doctor",
        "name": "CSB II Andohalo",
        "@geometry": "center"
      },
      "geometry": {
        "type": "Point",
        "coordinates": [
          47.5319211,
          -18.9200388
        ]
      },
      "id": "way/525143872"
    },
    {
      "type": "Feature",
      "properties": {
        "@id": "way/526225878",
        "amenity": "clinic",
        "healthcare": "hospital",
        "name": "OSTIE",
        "short_name": "OSTIE",
        "@geometry": "center"
      },
      "geometry": {
        "type": "Point",
        "coordinates": [
          47.5288116,
          -18.9032689
        ]
      },
      "id": "way/526225878"
    },
    {
      "type": "Feature",
      "properties": {
        "@id": "way/531936220",
        "amenity": "hospital",
        "building": "yes",
        "healthcare": "hospital",
        "name": "Centre de Protection Civile",
        "operator": "Communauté urbaine de Brickaville",
        "source": "PHF - Saint-Etienne",
        "@geometry": "center"
      },
      "geometry": {
        "type": "Point",
        "coordinates": [
          49.0759567,
          -18.8237064
        ]
      },
      "id": "way/531936220"
    },
    {
      "type": "Feature",
      "properties": {
        "@id": "way/531994195",
        "amenity": "doctors",
        "health_facility:type": "office",
        "name": "Cabinet médical Betesda",
        "@geometry": "center"
      },
      "geometry": {
        "type": "Point",
        "coordinates": [
          48.8050286,
          -19.8989953
        ]
      },
      "id": "way/531994195"
    },
    {
      "type": "Feature",
      "properties": {
        "@id": "way/531999217",
        "amenity": "pharmacy",
        "dispensing": "no",
        "name": "Dépôt de médicament Mitia",
        "@geometry": "center"
      },
      "geometry": {
        "type": "Point",
        "coordinates": [
          48.8070985,
          -19.8963195
        ]
      },
      "id": "way/531999217"
    },
    {
      "type": "Feature",
      "properties": {
        "@id": "way/533621656",
        "amenity": "hospital",
        "healthcare": "hospital",
        "@geometry": "center"
      },
      "geometry": {
        "type": "Point",
        "coordinates": [
          49.2965224,
          -12.2685747
        ]
      },
      "id": "way/533621656"
    },
    {
      "type": "Feature",
      "properties": {
        "@id": "way/534988459",
        "amenity": "pharmacy",
        "building": "yes",
        "dispensing": "no",
        "@geometry": "center"
      },
      "geometry": {
        "type": "Point",
        "coordinates": [
          48.8043794,
          -19.8930463
        ]
      },
      "id": "way/534988459"
    },
    {
      "type": "Feature",
      "properties": {
        "@id": "way/537194875",
        "amenity": "doctors",
        "building": "yes",
        "building:levels": "1",
        "health_facility:MG": "CSB2",
        "healthcare": "doctor",
        "name": "CSB II Ankadikely",
        "@geometry": "center"
      },
      "geometry": {
        "type": "Point",
        "coordinates": [
          47.5534546,
          -18.8485978
        ]
      },
      "id": "way/537194875"
    },
    {
      "type": "Feature",
      "properties": {
        "@id": "way/540838930",
        "amenity": "pharmacy",
        "building": "yes",
        "dispensing": "no",
        "name": "Pharmacie Mandresy",
        "@geometry": "center"
      },
      "geometry": {
        "type": "Point",
        "coordinates": [
          48.8012097,
          -19.5772843
        ]
      },
      "id": "way/540838930"
    },
    {
      "type": "Feature",
      "properties": {
        "@id": "way/541496020",
        "amenity": "doctors",
        "building": "hospital",
        "health_facility:MG": "CSB2",
        "health_facility:type": "dispensary",
        "healthcare": "doctor",
        "name": "CSB II Anosizato Andrefana",
        "openfkt_id": "SAN1_7_56",
        "operator:type": "public",
        "@geometry": "center"
      },
      "geometry": {
        "type": "Point",
        "coordinates": [
          47.4925067,
          -18.9406963
        ]
      },
      "id": "way/541496020"
    },
    {
      "type": "Feature",
      "properties": {
        "@id": "way/541536023",
        "amenity": "hospital",
        "health_facility:MG": "CHU",
        "healthcare": "hospital",
        "loc_name": "Hopitaliben'Antsiranana",
        "name": "Centre Hospitalier Universitaire de Place Kabary Antsiranana",
        "operator:type": "public",
        "short_name": "CHUPKA",
        "@geometry": "center"
      },
      "geometry": {
        "type": "Point",
        "coordinates": [
          49.2970965,
          -12.2686515
        ]
      },
      "id": "way/541536023"
    },
    {
      "type": "Feature",
      "properties": {
        "@id": "way/542220860",
        "amenity": "pharmacy",
        "building": "yes",
        "name": "Pharmacie Nouvelle",
        "@geometry": "center"
      },
      "geometry": {
        "type": "Point",
        "coordinates": [
          47.5224545,
          -18.9064821
        ]
      },
      "id": "way/542220860"
    },
    {
      "type": "Feature",
      "properties": {
        "@id": "way/542226629",
        "addr:housenumber": "2",
        "addr:street": "Làlana Ratianarivo Andrianary",
        "amenity": "pharmacy",
        "building": "yes",
        "dispensing": "yes",
        "name": "Pharmacie de Tana",
        "opening_hours": "Mo-Fr 08:00-12:00, 14:00-19:00; Sa 08:00-12:00",
        "phone": "22-207-17",
        "@geometry": "center"
      },
      "geometry": {
        "type": "Point",
        "coordinates": [
          47.5215259,
          -18.9080512
        ]
      },
      "id": "way/542226629"
    },
    {
      "type": "Feature",
      "properties": {
        "@id": "way/542990667",
        "amenity": "hospital",
        "building": "yes",
        "healthcare": "hospital",
        "name": "Complexe Mère Enfant",
        "note": "maternité",
        "@geometry": "center"
      },
      "geometry": {
        "type": "Point",
        "coordinates": [
          46.3049486,
          -15.7167197
        ]
      },
      "id": "way/542990667"
    },
    {
      "type": "Feature",
      "properties": {
        "@id": "way/542990668",
        "amenity": "hospital",
        "building": "yes",
        "healthcare": "hospital",
        "name": "Complexe Mère Enfant",
        "note": "maternité",
        "@geometry": "center"
      },
      "geometry": {
        "type": "Point",
        "coordinates": [
          46.3049951,
          -15.7166764
        ]
      },
      "id": "way/542990668"
    },
    {
      "type": "Feature",
      "properties": {
        "@id": "way/554641743",
        "alt_name": "CHU Andohatapenaka",
        "amenity": "hospital",
        "health_facility:MG": "CHU",
        "healthcare": "hospital",
        "name": "Hôpitaly Manarapenitra",
        "name:fr": "Hôpital Manara-Penitra",
        "name:mg": "Hôpitaly Manarapenitra",
        "operator": "Ministère de la Santé",
        "operator:type": "public",
        "@geometry": "center"
      },
      "geometry": {
        "type": "Point",
        "coordinates": [
          47.4908983,
          -18.8898674
        ]
      },
      "id": "way/554641743"
    },
    {
      "type": "Feature",
      "properties": {
        "@id": "way/557469157",
        "amenity": "doctors",
        "building": "yes",
        "healthcare": "doctor",
        "name": "OSTIE Mahalavolona",
        "@geometry": "center"
      },
      "geometry": {
        "type": "Point",
        "coordinates": [
          47.5298696,
          -18.9823241
        ]
      },
      "id": "way/557469157"
    },
    {
      "type": "Feature",
      "properties": {
        "@id": "way/567916083",
        "amenity": "hospital",
        "health_person:type": "witchdoctor",
        "landuse": "religious",
        "medical_system:malagasy": "yes",
        "operator": "FJKM",
        "@geometry": "center"
      },
      "geometry": {
        "type": "Point",
        "coordinates": [
          48.8576251,
          -19.5517273
        ]
      },
      "id": "way/567916083"
    },
    {
      "type": "Feature",
      "properties": {
        "@id": "way/568985251",
        "amenity": "doctors",
        "building": "yes",
        "health_facility:MG": "CSB2",
        "health_facility:type": "health_centre",
        "healthcare": "doctor",
        "name": "Centre de Santé de Base de Niveau II Sahamatevina",
        "operator:type": "public",
        "short_name": "CSB II Sahamatevina",
        "@geometry": "center"
      },
      "geometry": {
        "type": "Point",
        "coordinates": [
          48.9099346,
          -19.2713537
        ]
      },
      "id": "way/568985251"
    },
    {
      "type": "Feature",
      "properties": {
        "@id": "way/569324487",
        "amenity": "doctors",
        "building": "yes",
        "health_facility:MG": "CSB2",
        "health_facility:type": "health_centre",
        "healthcare": "doctor",
        "name": "Centre de Santé de Base niveau II Tsivangiana",
        "operator:type": "public",
        "short_name": "CSB II",
        "@geometry": "center"
      },
      "geometry": {
        "type": "Point",
        "coordinates": [
          48.7841564,
          -19.6523516
        ]
      },
      "id": "way/569324487"
    },
    {
      "type": "Feature",
      "properties": {
        "@id": "way/569373429",
        "amenity": "pharmacy",
        "building": "yes",
        "dispensing": "no",
        "name": "Dépot de Medicament chez Bally",
        "@geometry": "center"
      },
      "geometry": {
        "type": "Point",
        "coordinates": [
          48.8395606,
          -19.5531137
        ]
      },
      "id": "way/569373429"
    },
    {
      "type": "Feature",
      "properties": {
        "@id": "way/569378052",
        "amenity": "pharmacy",
        "dispensing": "no",
        "@geometry": "center"
      },
      "geometry": {
        "type": "Point",
        "coordinates": [
          48.8386045,
          -19.5514593
        ]
      },
      "id": "way/569378052"
    },
    {
      "type": "Feature",
      "properties": {
        "@id": "way/570703415",
        "amenity": "hospital",
        "health_facility:MG": "CHRD",
        "healthcare": "hospital",
        "name": "Centre Hospitalier de District Niveau II Mahanoro",
        "operator:type": "public",
        "short_name": "CHD II Mahanoro",
        "@geometry": "center"
      },
      "geometry": {
        "type": "Point",
        "coordinates": [
          48.8075317,
          -19.8941562
        ]
      },
      "id": "way/570703415"
    },
    {
      "type": "Feature",
      "properties": {
        "@id": "way/570750513",
        "amenity": "hospital",
        "healthcare": "hospital",
        "@geometry": "center"
      },
      "geometry": {
        "type": "Point",
        "coordinates": [
          47.5641046,
          -18.9168393
        ]
      },
      "id": "way/570750513"
    },
    {
      "type": "Feature",
      "properties": {
        "@id": "way/570933237",
        "amenity": "pharmacy",
        "dispensing": "no",
        "name": "Dépôt de médicament Lanto",
        "@geometry": "center"
      },
      "geometry": {
        "type": "Point",
        "coordinates": [
          48.8053358,
          -19.8944646
        ]
      },
      "id": "way/570933237"
    },
    {
      "type": "Feature",
      "properties": {
        "@id": "way/571036435",
        "amenity": "pharmacy",
        "building": "office",
        "dispensing": "no",
        "@geometry": "center"
      },
      "geometry": {
        "type": "Point",
        "coordinates": [
          48.9739824,
          -19.256898
        ]
      },
      "id": "way/571036435"
    },
    {
      "type": "Feature",
      "properties": {
        "@id": "way/571054309",
        "amenity": "doctors",
        "building": "yes",
        "health_facility:MG": "CSB2",
        "health_facility:type": "health_centre",
        "healthcare": "doctor",
        "name": "Centre de Santé de Base Niveau II Amboditavolo",
        "operator:type": "public",
        "short_name": "CSB II Amboditavolo",
        "@geometry": "center"
      },
      "geometry": {
        "type": "Point",
        "coordinates": [
          48.885281,
          -19.1788893
        ]
      },
      "id": "way/571054309"
    },
    {
      "type": "Feature",
      "properties": {
        "@id": "way/571379367",
        "amenity": "clinic",
        "building": "yes",
        "healthcare": "clinic",
        "name": "Dispensaire ECAR",
        "@geometry": "center"
      },
      "geometry": {
        "type": "Point",
        "coordinates": [
          47.6383036,
          -21.3050575
        ]
      },
      "id": "way/571379367"
    },
    {
      "type": "Feature",
      "properties": {
        "@id": "way/573595403",
        "amenity": "hospital",
        "building": "yes",
        "health_facility:type": "dispensary",
        "name": "Case de santé",
        "@geometry": "center"
      },
      "geometry": {
        "type": "Point",
        "coordinates": [
          48.7772416,
          -19.602534
        ]
      },
      "id": "way/573595403"
    },
    {
      "type": "Feature",
      "properties": {
        "@id": "way/578820196",
        "addr:fokontany": "Tsaramandroso Ambony",
        "addr:housenumber": "49",
        "addr:street": "Boulevard Marcoz",
        "amenity": "hospital",
        "building": "yes",
        "healthcare": "hospital",
        "name": "Clinique Médico Chirurgicale",
        "@geometry": "center"
      },
      "geometry": {
        "type": "Point",
        "coordinates": [
          46.314513,
          -15.7106623
        ]
      },
      "id": "way/578820196"
    },
    {
      "type": "Feature",
      "properties": {
        "@id": "way/583021824",
        "amenity": "pharmacy",
        "building": "yes",
        "description": "dépôt de médicaments",
        "dispensing": "yes",
        "name": "Dépôt de médicaments Ny Antsika",
        "@geometry": "center"
      },
      "geometry": {
        "type": "Point",
        "coordinates": [
          47.4555793,
          -21.259756
        ]
      },
      "id": "way/583021824"
    },
    {
      "type": "Feature",
      "properties": {
        "@id": "way/583700753",
        "amenity": "doctors",
        "building": "yes",
        "health_facility:MG": "CSB2",
        "healthcare": "doctor",
        "name": "CSB II Ambano",
        "@geometry": "center"
      },
      "geometry": {
        "type": "Point",
        "coordinates": [
          47.0476385,
          -19.7970237
        ]
      },
      "id": "way/583700753"
    },
    {
      "type": "Feature",
      "properties": {
        "@id": "way/583984554",
        "amenity": "pharmacy",
        "building": "yes",
        "dispensing": "yes",
        "healthcare": "pharmacy",
        "@geometry": "center"
      },
      "geometry": {
        "type": "Point",
        "coordinates": [
          48.011039,
          -22.1452559
        ]
      },
      "id": "way/583984554"
    },
    {
      "type": "Feature",
      "properties": {
        "@id": "way/585617170",
        "amenity": "hospital",
        "emergency": "yes",
        "healthcare": "hospital",
        "name": "Centre de santé Ambila Lemaitso",
        "@geometry": "center"
      },
      "geometry": {
        "type": "Point",
        "coordinates": [
          49.1539845,
          -18.8418903
        ]
      },
      "id": "way/585617170"
    },
    {
      "type": "Feature",
      "properties": {
        "@id": "node/590656559",
        "amenity": "pharmacy",
        "dispensing": "no"
      },
      "geometry": {
        "type": "Point",
        "coordinates": [
          47.6862682,
          -18.8780955
        ]
      },
      "id": "node/590656559"
    },
    {
      "type": "Feature",
      "properties": {
        "@id": "node/590835550",
        "amenity": "pharmacy",
        "dispensing": "yes",
        "healthcare": "pharmacy"
      },
      "geometry": {
        "type": "Point",
        "coordinates": [
          47.8104735,
          -18.9220129
        ]
      },
      "id": "node/590835550"
    },
    {
      "type": "Feature",
      "properties": {
        "@id": "way/591207558",
        "amenity": "doctors",
        "building": "yes",
        "building:levels": "1",
        "health_facility:MG": "CSB2",
        "healthcare": "doctor",
        "name": "CSB II Ambondromisotra",
        "operator:type": "public",
        "@geometry": "center"
      },
      "geometry": {
        "type": "Point",
        "coordinates": [
          46.9045129,
          -20.3241027
        ]
      },
      "id": "way/591207558"
    },
    {
      "type": "Feature",
      "properties": {
        "@id": "way/591855052",
        "amenity": "clinic",
        "name": "Centre Marie Stopes Andohanimandroseza",
        "operator": "Marie Stopes",
        "@geometry": "center"
      },
      "geometry": {
        "type": "Point",
        "coordinates": [
          47.5520823,
          -18.9256351
        ]
      },
      "id": "way/591855052"
    },
    {
      "type": "Feature",
      "properties": {
        "@id": "node/592485361",
        "amenity": "pharmacy",
        "dispensing": "yes",
        "name": "Ambatolaona"
      },
      "geometry": {
        "type": "Point",
        "coordinates": [
          47.8823756,
          -18.9287835
        ]
      },
      "id": "node/592485361"
    },
    {
      "type": "Feature",
      "properties": {
        "@id": "way/595555421",
        "amenity": "hospital",
        "health_facility:MG": "CHRD",
        "healthcare": "hospital",
        "name": "Service de Santé de District Mitsinjo",
        "@geometry": "center"
      },
      "geometry": {
        "type": "Point",
        "coordinates": [
          45.8712858,
          -16.008546
        ]
      },
      "id": "way/595555421"
    },
    {
      "type": "Feature",
      "properties": {
        "@id": "node/595737814",
        "amenity": "doctors",
        "fixme": "location doesn't seem to be near an hospital building",
        "health_facility:MG": "CSB2",
        "health_facility:type": "dispensary",
        "healthcare": "doctor",
        "name": "CSB II Ambodibonara",
        "operator:type": "public",
        "type": "CSB2"
      },
      "geometry": {
        "type": "Point",
        "coordinates": [
          49.2387899,
          -18.3079177
        ]
      },
      "id": "node/595737814"
    },
    {
      "type": "Feature",
      "properties": {
        "@id": "way/600703130",
        "amenity": "pharmacy",
        "building": "yes",
        "description": "dépôt de médicaments",
        "dispensing": "yes",
        "@geometry": "center"
      },
      "geometry": {
        "type": "Point",
        "coordinates": [
          46.7321657,
          -19.0414657
        ]
      },
      "id": "way/600703130"
    },
    {
      "type": "Feature",
      "properties": {
        "@id": "way/600703133",
        "amenity": "doctors",
        "building": "yes",
        "health_facility:MG": "CSB2",
        "health_facility:type": "health_centre",
        "healthcare": "doctor",
        "name": "Centre de Santé de Base de niveau II Ampefy",
        "operator:type": "public",
        "short_name": "CSB II Ampefy",
        "@geometry": "center"
      },
      "geometry": {
        "type": "Point",
        "coordinates": [
          46.7313168,
          -19.0413394
        ]
      },
      "id": "way/600703133"
    },
    {
      "type": "Feature",
      "properties": {
        "@id": "way/606085873",
        "amenity": "hospital",
        "healthcare": "hospital",
        "layer": "-1",
        "name": "Orthodoxe",
        "@geometry": "center"
      },
      "geometry": {
        "type": "Point",
        "coordinates": [
          47.5671536,
          -18.9604259
        ]
      },
      "id": "way/606085873"
    },
    {
      "type": "Feature",
      "properties": {
        "@id": "way/609285443",
        "addr:city": "Mananjary",
        "addr:postcode": "317",
        "amenity": "clinic",
        "building": "yes",
        "healthcare": "clinic",
        "healthcare:speciality": "general",
        "name": "Dispensaire ECAR",
        "operator": "Communauté des soeurs Saint Paul de Chartres",
        "operator:type": "religious",
        "@geometry": "center"
      },
      "geometry": {
        "type": "Point",
        "coordinates": [
          48.3391595,
          -21.2263214
        ]
      },
      "id": "way/609285443"
    },
    {
      "type": "Feature",
      "properties": {
        "@id": "node/613724504",
        "amenity": "pharmacy",
        "dispensing": "yes",
        "name": "Pharmacie de Mahamasina"
      },
      "geometry": {
        "type": "Point",
        "coordinates": [
          47.5241973,
          -18.9208004
        ]
      },
      "id": "node/613724504"
    },
    {
      "type": "Feature",
      "properties": {
        "@id": "node/616734902",
        "amenity": "hospital",
        "healthcare": "hospital",
        "name": "Angeline Medical Institute"
      },
      "geometry": {
        "type": "Point",
        "coordinates": [
          47.5172775,
          -18.9087993
        ]
      },
      "id": "node/616734902"
    },
    {
      "type": "Feature",
      "properties": {
        "@id": "node/616734952",
        "amenity": "pharmacy",
        "dispensing": "yes",
        "healthcare": "pharmacy",
        "name": "Pharmacie Isoraka"
      },
      "geometry": {
        "type": "Point",
        "coordinates": [
          47.522007,
          -18.9108013
        ]
      },
      "id": "node/616734952"
    },
    {
      "type": "Feature",
      "properties": {
        "@id": "node/616790232",
        "amenity": "doctors",
        "healthcare": "doctor"
      },
      "geometry": {
        "type": "Point",
        "coordinates": [
          47.5203163,
          -18.9095505
        ]
      },
      "id": "node/616790232"
    },
    {
      "type": "Feature",
      "properties": {
        "@id": "node/617359478",
        "amenity": "pharmacy",
        "dispensing": "yes",
        "healthcare": "pharmacy",
        "name": "La Providence"
      },
      "geometry": {
        "type": "Point",
        "coordinates": [
          47.5270114,
          -18.9106154
        ]
      },
      "id": "node/617359478"
    },
    {
      "type": "Feature",
      "properties": {
        "@id": "node/619467694",
        "amenity": "pharmacy",
        "dispensing": "yes",
        "healthcare": "pharmacy",
        "name": "Pharmacie de la Pergola",
        "opening_hours": "Mo-Sa 08:00-12:00",
        "panoramax": "1fcc87a5-5a73-4e60-9726-b92dc33e4b98",
        "phone": "22-237-17"
      },
      "geometry": {
        "type": "Point",
        "coordinates": [
          47.5269289,
          -18.9116038
        ]
      },
      "id": "node/619467694"
    },
    {
      "type": "Feature",
      "properties": {
        "@id": "node/620120127",
        "addr:housenumber": "7",
        "addr:street": "Làlana Ratsimilaho",
        "amenity": "pharmacy",
        "description": "Service certifiée  Services :  Injection Test paludisme Test glycémie Pesée , etp Conseils personnalisés Espace bébé Vente produits pharmaceutiques  Parking gratuit  Achat en magasin",
        "dispensing": "yes",
        "healthcare": "pharmacy",
        "name": "Pharmacie Métropole",
        "opening_hours": "Mo-Fr 08:00-12:30, 14:00-18:30; Sa 08:00-12:00",
        "panoramax": "6b0a7df9-f837-45eb-98d6-badf2e2b9dd8",
        "phone": "22-200-25"
      },
      "geometry": {
        "type": "Point",
        "coordinates": [
          47.5259551,
          -18.9107553
        ]
      },
      "id": "node/620120127"
    },
    {
      "type": "Feature",
      "properties": {
        "@id": "node/620818096",
        "amenity": "pharmacy",
        "dispensing": "yes",
        "healthcare": "pharmacy",
        "name": "Pharmacie Hanitra"
      },
      "geometry": {
        "type": "Point",
        "coordinates": [
          47.5371404,
          -18.9162737
        ]
      },
      "id": "node/620818096"
    },
    {
      "type": "Feature",
      "properties": {
        "@id": "node/620900970",
        "amenity": "pharmacy",
        "dispensing": "yes",
        "healthcare": "pharmacy",
        "name": "Pharmacie Ambodifilao",
        "panoramax": "9847efd2-5641-4aa7-aa16-155cae623d61"
      },
      "geometry": {
        "type": "Point",
        "coordinates": [
          47.5264872,
          -18.9065857
        ]
      },
      "id": "node/620900970"
    },
    {
      "type": "Feature",
      "properties": {
        "@id": "node/621444495",
        "amenity": "pharmacy",
        "dispensing": "yes",
        "healthcare": "pharmacy",
        "name": "Pharmacie Iarivo",
        "panoramax": "c4b6eeba-6bee-449d-b8e9-7ceb8a035832"
      },
      "geometry": {
        "type": "Point",
        "coordinates": [
          47.5226844,
          -18.903471
        ]
      },
      "id": "node/621444495"
    },
    {
      "type": "Feature",
      "properties": {
        "@id": "node/621447803",
        "amenity": "pharmacy",
        "dispensing": "yes",
        "name": "Pharmacie Rakotoarivony",
        "panoramax": "08e91ad6-e8e7-43c0-8bf7-ca6e7ffb502d"
      },
      "geometry": {
        "type": "Point",
        "coordinates": [
          47.5247311,
          -18.9056707
        ]
      },
      "id": "node/621447803"
    },
    {
      "type": "Feature",
      "properties": {
        "@id": "node/623066880",
        "amenity": "pharmacy",
        "dispensing": "yes",
        "healthcare": "pharmacy",
        "name": "Pharmacie du Progrès de l'Île Rouge",
        "name:fr": "Pharmacie de l'avenue"
      },
      "geometry": {
        "type": "Point",
        "coordinates": [
          47.526922,
          -18.9097913
        ]
      },
      "id": "node/623066880"
    },
    {
      "type": "Feature",
      "properties": {
        "@id": "node/623083775",
        "amenity": "pharmacy",
        "dispensing": "yes",
        "healthcare": "pharmacy",
        "name": "Pharmacie Razafimandranto",
        "name:fr": "Pharmacie Razafimandranto"
      },
      "geometry": {
        "type": "Point",
        "coordinates": [
          47.5261232,
          -18.9087388
        ]
      },
      "id": "node/623083775"
    },
    {
      "type": "Feature",
      "properties": {
        "@id": "node/623083781",
        "amenity": "pharmacy",
        "dispensing": "yes",
        "healthcare": "pharmacy",
        "name": "Pharmacie d'Analakely"
      },
      "geometry": {
        "type": "Point",
        "coordinates": [
          47.5257355,
          -18.9084341
        ]
      },
      "id": "node/623083781"
    },
    {
      "type": "Feature",
      "properties": {
        "@id": "node/623392679",
        "amenity": "pharmacy",
        "dispensing": "yes",
        "healthcare": "pharmacy",
        "name": "Pharmacie de l'Océan Indien",
        "panoramax": "5be05f51-e977-4dc0-b6ad-c4ce11572ef1"
      },
      "geometry": {
        "type": "Point",
        "coordinates": [
          47.5223005,
          -18.9052159
        ]
      },
      "id": "node/623392679"
    },
    {
      "type": "Feature",
      "properties": {
        "@id": "node/623568957",
        "amenity": "pharmacy",
        "dispensing": "yes",
        "name": "Pharmacie d'Ambatobe",
        "opening_hours:signed": "no"
      },
      "geometry": {
        "type": "Point",
        "coordinates": [
          47.5594051,
          -18.8784403
        ]
      },
      "id": "node/623568957"
    },
    {
      "type": "Feature",
      "properties": {
        "@id": "way/634538409",
        "amenity": "doctors",
        "building": "hospital",
        "health_facility:MG": "CSB2",
        "healthcare": "doctor",
        "healthcare:speciality": "general;dentistry;maternity",
        "name": "CSB2 Ambatomena",
        "@geometry": "center"
      },
      "geometry": {
        "type": "Point",
        "coordinates": [
          47.7572605,
          -18.7822765
        ]
      },
      "id": "way/634538409"
    },
    {
      "type": "Feature",
      "properties": {
        "@id": "way/636612817",
        "amenity": "doctors",
        "building": "yes",
        "healthcare": "doctor",
        "name": "MEDECIN",
        "@geometry": "center"
      },
      "geometry": {
        "type": "Point",
        "coordinates": [
          47.2368513,
          -20.5368769
        ]
      },
      "id": "way/636612817"
    },
    {
      "type": "Feature",
      "properties": {
        "@id": "way/639850286",
        "addr:street": "Route Ambohijanahary Ambohibao",
        "amenity": "pharmacy",
        "building": "yes",
        "dispensing": "yes",
        "healthcare": "pharmacy",
        "name": "Pharmacie Ambohibao",
        "@geometry": "center"
      },
      "geometry": {
        "type": "Point",
        "coordinates": [
          47.4739723,
          -18.845623
        ]
      },
      "id": "way/639850286"
    },
    {
      "type": "Feature",
      "properties": {
        "@id": "way/639855579",
        "amenity": "doctors",
        "building": "yes",
        "health_facility:MG": "CSB2",
        "healthcare": "doctor",
        "name": "CSB II Ambohibao",
        "@geometry": "center"
      },
      "geometry": {
        "type": "Point",
        "coordinates": [
          47.473596,
          -18.8478276
        ]
      },
      "id": "way/639855579"
    },
    {
      "type": "Feature",
      "properties": {
        "@id": "way/641816319",
        "amenity": "doctors",
        "building": "yes",
        "healthcare": "doctor",
        "healthcare:speciality": "gynecology;obstetrics",
        "@geometry": "center"
      },
      "geometry": {
        "type": "Point",
        "coordinates": [
          47.5357465,
          -18.9118747
        ]
      },
      "id": "way/641816319"
    },
    {
      "type": "Feature",
      "properties": {
        "@id": "way/641816321",
        "amenity": "doctors",
        "building": "office",
        "healthcare": "doctor",
        "@geometry": "center"
      },
      "geometry": {
        "type": "Point",
        "coordinates": [
          47.5347257,
          -18.9133965
        ]
      },
      "id": "way/641816321"
    },
    {
      "type": "Feature",
      "properties": {
        "@id": "way/649473719",
        "amenity": "clinic",
        "name": "Clinique Medico Chirurgical Koloina",
        "@geometry": "center"
      },
      "geometry": {
        "type": "Point",
        "coordinates": [
          47.4609242,
          -18.8935144
        ]
      },
      "id": "way/649473719"
    },
    {
      "type": "Feature",
      "properties": {
        "@id": "way/649473722",
        "amenity": "doctors",
        "building": "yes",
        "name": "Cabinet Mamy Ny Aina",
        "@geometry": "center"
      },
      "geometry": {
        "type": "Point",
        "coordinates": [
          47.4611253,
          -18.8931561
        ]
      },
      "id": "way/649473722"
    },
    {
      "type": "Feature",
      "properties": {
        "@id": "way/649477270",
        "amenity": "doctors",
        "health_facility:MG": "CSB2",
        "healthcare": "doctor",
        "name": "CSB II Ankadimanga",
        "operator:type": "public",
        "@geometry": "center"
      },
      "geometry": {
        "type": "Point",
        "coordinates": [
          47.461928,
          -18.8944866
        ]
      },
      "id": "way/649477270"
    },
    {
      "type": "Feature",
      "properties": {
        "@id": "way/650044558",
        "amenity": "hospital",
        "building": "yes",
        "description": "Hopital bloc opératoire",
        "healthcare": "hospital",
        "@geometry": "center"
      },
      "geometry": {
        "type": "Point",
        "coordinates": [
          49.852505,
          -16.995347
        ]
      },
      "id": "way/650044558"
    },
    {
      "type": "Feature",
      "properties": {
        "@id": "way/650044559",
        "amenity": "hospital",
        "building": "yes",
        "description": "Hopital Bloc Opératoire",
        "healthcare": "hospital",
        "@geometry": "center"
      },
      "geometry": {
        "type": "Point",
        "coordinates": [
          49.8523535,
          -16.9953766
        ]
      },
      "id": "way/650044559"
    },
    {
      "type": "Feature",
      "properties": {
        "@id": "way/650044561",
        "amenity": "hospital",
        "building": "yes",
        "healthcare": "hospital",
        "@geometry": "center"
      },
      "geometry": {
        "type": "Point",
        "coordinates": [
          49.8520799,
          -16.9947943
        ]
      },
      "id": "way/650044561"
    },
    {
      "type": "Feature",
      "properties": {
        "@id": "way/650085085",
        "addr:city": "Sainte Marie",
        "addr:housenumber": "Ecole privée Saint Joseph",
        "addr:postcode": "515",
        "addr:street": "Saint Joseph",
        "amenity": "hospital",
        "healthcare": "hospital",
        "@geometry": "center"
      },
      "geometry": {
        "type": "Point",
        "coordinates": [
          49.8533742,
          -17.0056731
        ]
      },
      "id": "way/650085085"
    },
    {
      "type": "Feature",
      "properties": {
        "@id": "way/654478309",
        "amenity": "doctors",
        "health_facility:MG": "CSB2",
        "healthcare": "doctor",
        "name": "CSB II Soanindrariny",
        "operator:type": "public",
        "@geometry": "center"
      },
      "geometry": {
        "type": "Point",
        "coordinates": [
          47.2352994,
          -19.9044338
        ]
      },
      "id": "way/654478309"
    },
    {
      "type": "Feature",
      "properties": {
        "@id": "node/660058404",
        "amenity": "pharmacy",
        "dispensing": "yes",
        "name": "Pharmacie Bivia Talatamaty"
      },
      "geometry": {
        "type": "Point",
        "coordinates": [
          47.4619873,
          -18.8393572
        ]
      },
      "id": "node/660058404"
    },
    {
      "type": "Feature",
      "properties": {
        "@id": "node/660058405",
        "amenity": "pharmacy",
        "dispensing": "yes",
        "name": "Pharmacie d'Ambohibao"
      },
      "geometry": {
        "type": "Point",
        "coordinates": [
          47.4739485,
          -18.8456516
        ]
      },
      "id": "node/660058405"
    },
    {
      "type": "Feature",
      "properties": {
        "@id": "node/663135700",
        "amenity": "pharmacy",
        "name": "AICHA"
      },
      "geometry": {
        "type": "Point",
        "coordinates": [
          47.5084897,
          -18.9133706
        ]
      },
      "id": "node/663135700"
    },
    {
      "type": "Feature",
      "properties": {
        "@id": "node/663240634",
        "amenity": "pharmacy",
        "name": "Miaro",
        "name:fr": "Pharmacie MIARO",
        "phone": "+26120 22 621 18"
      },
      "geometry": {
        "type": "Point",
        "coordinates": [
          47.518133,
          -18.9127248
        ]
      },
      "id": "node/663240634"
    },
    {
      "type": "Feature",
      "properties": {
        "@id": "node/663240635",
        "amenity": "pharmacy",
        "name": "Pharmacie Ampefiloha"
      },
      "geometry": {
        "type": "Point",
        "coordinates": [
          47.5164424,
          -18.9135837
        ]
      },
      "id": "node/663240635"
    },
    {
      "type": "Feature",
      "properties": {
        "@id": "node/663455768",
        "amenity": "hospital",
        "health_facility:MG": "CHRD",
        "healthcare": "hospital",
        "name": "Hôpital de Soalala"
      },
      "geometry": {
        "type": "Point",
        "coordinates": [
          45.3258722,
          -16.1022947
        ]
      },
      "id": "node/663455768"
    },
    {
      "type": "Feature",
      "properties": {
        "@id": "node/664491842",
        "amenity": "pharmacy",
        "dispensing": "yes"
      },
      "geometry": {
        "type": "Point",
        "coordinates": [
          48.2292965,
          -18.9467734
        ]
      },
      "id": "node/664491842"
    },
    {
      "type": "Feature",
      "properties": {
        "@id": "node/666386549",
        "amenity": "pharmacy",
        "dispensing": "no"
      },
      "geometry": {
        "type": "Point",
        "coordinates": [
          45.8639635,
          -16.0119163
        ]
      },
      "id": "node/666386549"
    },
    {
      "type": "Feature",
      "properties": {
        "@id": "node/666918634",
        "amenity": "doctors",
        "health_facility:MG": "CSB2",
        "healthcare": "doctor",
        "name": "CSB II Andranomavo"
      },
      "geometry": {
        "type": "Point",
        "coordinates": [
          45.5638155,
          -16.5787577
        ]
      },
      "id": "node/666918634"
    },
    {
      "type": "Feature",
      "properties": {
        "@id": "node/666922719",
        "amenity": "doctors",
        "health_facility:MG": "CSB2",
        "healthcare": "doctor",
        "name": "CSB II Vilanandro"
      },
      "geometry": {
        "type": "Point",
        "coordinates": [
          45.4350958,
          -16.4937199
        ]
      },
      "id": "node/666922719"
    },
    {
      "type": "Feature",
      "properties": {
        "@id": "node/667889070",
        "amenity": "pharmacy",
        "healthcare": "pharmacy",
        "name": "Pharmacie Ny Aina"
      },
      "geometry": {
        "type": "Point",
        "coordinates": [
          47.5317702,
          -18.9012023
        ]
      },
      "id": "node/667889070"
    },
    {
      "type": "Feature",
      "properties": {
        "@id": "node/669178698",
        "amenity": "doctors",
        "health_facility:MG": "CSB2",
        "healthcare": "doctor",
        "name": "CSB II Mahambo",
        "operator:type": "public"
      },
      "geometry": {
        "type": "Point",
        "coordinates": [
          49.4537513,
          -17.4867561
        ]
      },
      "id": "node/669178698"
    },
    {
      "type": "Feature",
      "properties": {
        "@id": "node/671507273",
        "amenity": "pharmacy",
        "dispensing": "yes",
        "healthcare": "pharmacy",
        "name": "Ravinala"
      },
      "geometry": {
        "type": "Point",
        "coordinates": [
          49.4124958,
          -17.3833542
        ]
      },
      "id": "node/671507273"
    },
    {
      "type": "Feature",
      "properties": {
        "@id": "node/671507412",
        "amenity": "hospital",
        "health_facility:MG": "CHRR",
        "healthcare": "hospital",
        "name": "Hôpital de Fénérive-Est"
      },
      "geometry": {
        "type": "Point",
        "coordinates": [
          49.4198526,
          -17.3820097
        ]
      },
      "id": "node/671507412"
    },
    {
      "type": "Feature",
      "properties": {
        "@id": "node/671561262",
        "amenity": "pharmacy",
        "dispensing": "no",
        "healthcare": "pharmacy",
        "name": "Chez Ra Delph"
      },
      "geometry": {
        "type": "Point",
        "coordinates": [
          49.5863076,
          -16.9202646
        ]
      },
      "id": "node/671561262"
    },
    {
      "type": "Feature",
      "properties": {
        "@id": "node/671906174",
        "amenity": "doctors",
        "health_facility:MG": "CSB2",
        "health_facility:type": "dispensary",
        "healthcare": "doctor",
        "name": "CSB II Ambohipo",
        "operator:type": "public"
      },
      "geometry": {
        "type": "Point",
        "coordinates": [
          47.5588174,
          -18.9273456
        ]
      },
      "id": "node/671906174"
    },
    {
      "type": "Feature",
      "properties": {
        "@id": "way/672261999",
        "amenity": "doctors",
        "building": "hospital",
        "health_facility:MG": "CSB2",
        "health_facility:type": "dispensary",
        "healthcare": "doctor",
        "name": "CSB II Mahatsinjony",
        "operator:type": "public",
        "@geometry": "center"
      },
      "geometry": {
        "type": "Point",
        "coordinates": [
          47.202864,
          -21.421018
        ]
      },
      "id": "way/672261999"
    },
    {
      "type": "Feature",
      "properties": {
        "@id": "node/672951377",
        "amenity": "pharmacy",
        "dispensing": "yes",
        "healthcare": "pharmacy",
        "name": "Pharmacie Harinosy"
      },
      "geometry": {
        "type": "Point",
        "coordinates": [
          46.3085577,
          -15.7225157
        ]
      },
      "id": "node/672951377"
    },
    {
      "type": "Feature",
      "properties": {
        "@id": "node/672951398",
        "amenity": "pharmacy",
        "dispensing": "yes",
        "healthcare": "pharmacy",
        "name": "Pharmacie de la Betsiboka"
      },
      "geometry": {
        "type": "Point",
        "coordinates": [
          46.3106227,
          -15.723468
        ]
      },
      "id": "node/672951398"
    },
    {
      "type": "Feature",
      "properties": {
        "@id": "node/672951571",
        "amenity": "pharmacy",
        "dispensing": "yes",
        "healthcare": "pharmacy",
        "name": "Pharmacie du Centre"
      },
      "geometry": {
        "type": "Point",
        "coordinates": [
          46.3177669,
          -15.7210067
        ]
      },
      "id": "node/672951571"
    },
    {
      "type": "Feature",
      "properties": {
        "@id": "node/676824905",
        "amenity": "pharmacy",
        "dispensing": "yes",
        "healthcare": "pharmacy",
        "name": "Pharmacie Valisoa"
      },
      "geometry": {
        "type": "Point",
        "coordinates": [
          49.3832837,
          -18.1419162
        ]
      },
      "id": "node/676824905"
    },
    {
      "type": "Feature",
      "properties": {
        "@id": "node/676825321",
        "amenity": "pharmacy",
        "dispensing": "yes",
        "healthcare": "pharmacy",
        "name": "Andry Pharmacie"
      },
      "geometry": {
        "type": "Point",
        "coordinates": [
          49.4041488,
          -18.1553881
        ]
      },
      "id": "node/676825321"
    },
    {
      "type": "Feature",
      "properties": {
        "@id": "node/676825350",
        "amenity": "pharmacy",
        "dispensing": "yes",
        "healthcare": "pharmacy",
        "name": "Pharmacie Vonjy"
      },
      "geometry": {
        "type": "Point",
        "coordinates": [
          49.3971791,
          -18.1538724
        ]
      },
      "id": "node/676825350"
    },
    {
      "type": "Feature",
      "properties": {
        "@id": "node/676825446",
        "amenity": "pharmacy",
        "dispensing": "yes",
        "healthcare": "pharmacy",
        "name": "Pharmacie Joycia"
      },
      "geometry": {
        "type": "Point",
        "coordinates": [
          49.4032065,
          -18.1512316
        ]
      },
      "id": "node/676825446"
    },
    {
      "type": "Feature",
      "properties": {
        "@id": "node/676825458",
        "amenity": "pharmacy",
        "dispensing": "yes",
        "healthcare": "pharmacy",
        "name": "Pharmacie Mirindra"
      },
      "geometry": {
        "type": "Point",
        "coordinates": [
          49.4038681,
          -18.1494214
        ]
      },
      "id": "node/676825458"
    },
    {
      "type": "Feature",
      "properties": {
        "@id": "node/676825512",
        "amenity": "pharmacy",
        "dispensing": "yes",
        "healthcare": "pharmacy",
        "name": "Pharmacie Mahatsara"
      },
      "geometry": {
        "type": "Point",
        "coordinates": [
          49.4057066,
          -18.1564062
        ]
      },
      "id": "node/676825512"
    },
    {
      "type": "Feature",
      "properties": {
        "@id": "node/676825569",
        "amenity": "pharmacy",
        "dispensing": "yes",
        "healthcare": "pharmacy",
        "name": "Pharmacie Vagnona"
      },
      "geometry": {
        "type": "Point",
        "coordinates": [
          49.412344,
          -18.1584181
        ]
      },
      "id": "node/676825569"
    },